{"restaurant":[{"name":"Sushi Sushi","location":[{"name":"Box Hill","address":"Shop FF01, Whitehorse Plaza Shopping Centre, 17-21 Market Street, Box Hill VIC 3128"}],"website":"http:\/\/www.sushisushi.com.au\/","rating":3.5,"comment":[{"name":"Louis","rating":3,"text":"comment testing 1"}],"shop_img":[{"big":"restaurent4.jpg","small":"sushi4.jpg"}],"tel":"0398985076","food":[{"name":"Sushi"}]},{"name":"Yuria Sushi","location":[{"name":"Box Hill","address":"Box Hill Central, 1 Main St, Box Hill VIC 3128"}],"website":"#","rating":3,"comment":[{"name":"Dunn","rating":3,"text":"comment testing 2"}],"shop_img":[{"big":"restaurent5.jpg","small":"sushi5.jpg"}],"tel":"0398985076","food":[{"name":"Sushi"}]},{"name":"Irodori House Japanese Fusion Restaurant","location":[{"name":"Box Hill","address":"578 Station St, Box Hill VIC 3128"}],"website":"#","rating":4,"comment":[{"name":"Varun","rating":4,"text":"Food so good"}],"shop_img":[{"big":"restaurent6.jpg","small":"sushi6.jpg"}],"tel":"0398996180","food":[{"name":"Sushi"}]},{"name":"Shuji Sushi","location":[{"name":"Burwood","address":"G31, Burwood One Shopping Centre, 172 Burwood Highway Burwood East VIC 3151"}],"website":"www.shujisushi.com.au","rating":0,"comment":[],"shop_img":[{"big":"restaurent1.jpg","small":"sushi1.jpg"}],"tel":"0398027753","food":[{"name":"sushi"}]},{"name":"Shiranui Sushi","location":[{"name":"Burwood","address":"47 Springvale Rd, Glen Waverley VIC 3150"}],"website":"#","rating":0,"comment":[],"shop_img":[{"big":"restaurent2.jpg","small":"sushi2.jpg"}],"tel":"0398867755","food":[{"name":"Sushi"}]},{"name":"Two Corners Japanese Fusion Cafe","location":[{"name":"Burwood","address":"73 Station St, Burwood VIC 3125"}],"website":"#","rating":0,"comment":[],"shop_img":[{"big":"restaurent3.jpg","small":"sushi3.jpg"}],"tel":"0398887522","food":[{"name":"Sushi"}]},{"name":"Suzuran Sushi","location":[{"name":"Camberwell","address":"1025-1027 Burke Road, Camberwell VIC 3141"}],"website":"http:\/\/suzuran.com.au\/","rating":0,"comment":[],"shop_img":[{"big":"restaurent7.jpg","small":"sushi7.jpg"}],"tel":"0398822349","food":[{"name":"Sushi"}]},{"name":"Kenji Japanese Gourmet","location":[{"name":"Camberwell","address":"10\/1405-1411 Toorak Road, Camberwell VIC 3124"}],"website":"https:\/\/www.facebook.com\/pages\/Kenji-Japanese-Gourmet\/158938314130042","rating":0,"comment":[],"shop_img":[{"big":"restaurent8.jpg","small":"sushi8.jpg"}],"tel":"0398891084","food":[{"name":"Sushi"}]},{"name":"Sakataya Teppanyaki Restaurant","location":[{"name":"Camberwell","address":"12 Hollsmoor Rd, Camberwell VIC 3124"}],"website":"www.sakataya.com.au\/","rating":0,"comment":[],"shop_img":[{"big":"restaurent9.jpg","small":"sushi9.jpg"}],"tel":"0398824600","food":[{"name":"Sushi"}]},{"name":"Sakura Sushi Bar Restaurant","location":[{"name":"Doncaster","address":"Korea Japan Mini Mart 16\/958 Doncaster Rd, Doncaster East VIC 3109"}],"website":"#","rating":0,"comment":[],"shop_img":[{"big":"restaurent10.jpg","small":"sushi10.jpg"}],"tel":"0398415488","food":[{"name":"Sushi"}]},{"name":"Itamae Sushi Restaurant","location":[{"name":"Doncaster","address":"Westfield Doncaster, 619 Doncaster Rd, Doncaster East VIC 3108"}],"website":"#","rating":0,"comment":[],"shop_img":[{"big":"restaurent11.jpg","small":"sushi11.jpg"}],"tel":"0398489333","food":[{"name":"Sushi"}]},{"name":"Jessies Pizza Blackburn South","location":[{"name":"BlackBurn","address":"151 Eley Road, Blackburn South VIC 3130"}],"website":"http:\/\/www.jessiespizzablackburnsouth.com.au\/","rating":0,"comment":[],"shop_img":[{"big":"restaurent31.jpg","small":"pizza11.jpg"}],"tel":"0398024622","food":[{"name":"pizza"}]},{"name":"Top Tic Pizza Restaurant","location":[{"name":"BlackBurn","address":"126A Canterbury Rd, Blackburn South VIC 3130"}],"website":"http:\/\/www.topticpizza.com\/","rating":0,"comment":[],"shop_img":[{"big":"restaurent32.jpg","small":"pizza12.jpg"}],"tel":"0398941499","food":[{"name":"pizza"}]},{"name":"Red Rocket Wood Fired Pizza & Pasta","location":[{"name":"BlackBurn","address":"5\/96-98 Canterbury Rd, Blackburn South VIC 3130"}],"website":"http:\/\/www.redrocketwoodfiredpizza.com.au\/","rating":0,"comment":[],"shop_img":[{"big":"restaurent33.jpg","small":"pizza13.jpg"}],"tel":"0388060561","food":[{"name":"pizza"}]},{"name":"Crust Gourmet Pizza Bar","location":[{"name":"Box Hill","address":"967 Whitehorse Rd, Box Hill VIC 3128"}],"website":"https:\/\/www.crust.com.au\/","rating":0,"comment":[],"shop_img":[{"big":"restaurent28.jpg","small":"pizza8.jpg"}],"tel":"0398908288","food":[{"name":"pizza"}]},{"name":"Pizza Works","location":[{"name":"Box Hill","address":"594 Elgar Rd, Box Hill North VIC 3129"}],"website":"http:\/\/www.pizzaworks.com.au\/","rating":0,"comment":[],"shop_img":[{"big":"restaurent30.jpg","small":"pizza10.jpg"}],"tel":"0398990004","food":[{"name":"pizza"}]},{"name":"DA Pino's Pizzeria Restaurant","location":[{"name":"Box Hill","address":"939A Station St, Box Hill North VIC 3129"}],"website":"http:\/\/www.dapinospizza.com.au\/","rating":0,"comment":[],"shop_img":[{"big":"restaurent29.jpg","small":"pizza9.jpg"}],"tel":"0398999393","food":[{"name":"pizza"}]},{"name":"90 Secondi","location":[{"name":"Docklands","address":"1\/700 Bourke St, Melbourne VIC 3000"}],"website":"http:\/\/90secondi.com.au\/","rating":0,"comment":[],"shop_img":[{"big":"restaurent24.jpg","small":"pizza4.jpg"}],"tel":"03996002841","food":[{"name":"pizza"}]},{"name":"Network Public Bar & Pizzeria","location":[{"name":"Docklands","address":"Europcar Southern Cross Station, 1 Spencer St, Docklands VIC 3008 "}],"website":"http:\/\/networkpublicbar.com.au\/","rating":0,"comment":[],"shop_img":[{"big":"restaurent25.jpg","small":"pizza5.jpg"}],"tel":"0386760115","food":[{"name":"pizza"}]},{"name":"11 Inch Pizza Docklands","location":[{"name":"Docklands","address":"8\/737 Bourke St, Docklands VIC 3008"}],"website":"http:\/\/www.11inchdocklands.com.au\/","rating":0,"comment":[],"shop_img":[{"big":"restaurent26.jpg","small":"pizza6.jpg"}],"tel":"0396002236","food":[{"name":"pizza"}]},{"name":"Spencer Pizza Kebab & Cafe","location":[{"name":"Docklands","address":"92 Rebecca Walk, Melbourne VIC 3000"}],"website":"http:\/\/www.khanspizzakebab.com.au\/","rating":0,"comment":[],"shop_img":[{"big":"restaurent27.jpg","small":"pizza7.jpg"}],"tel":"0390316309","food":[{"name":"pizza"}]},{"name":"+39 Pizzeria","location":[{"name":"Melbourne","address":"362 Little Bourke St, Melbourne VIC 3000"}],"website":"http:\/\/plus39.com.au\/","rating":0,"comment":[],"shop_img":[{"big":"restaurent21.jpg","small":"pizza1.jpg"}],"tel":"0396420440","food":[{"name":"pizza"}]},{"name":"Patony Pizza","location":[{"name":"Melbourne","address":"274 Clarendon St, South Melbourne VIC 3205"}],"website":"http:\/\/patonypizza.com\/","rating":0,"comment":[],"shop_img":[{"big":"restaurent22.jpg","small":"pizza2.jpg"}],"tel":"0396902611","food":[{"name":"pizza"}]},{"name":"Pomodoro Sardo .... Taste of Sardinia","location":[{"name":"Melbourne","address":"118 Lonsdale St, Melbourne VIC 3000"}],"website":"http:\/\/www.pomodorosardo.com\/","rating":0,"comment":[],"shop_img":[{"big":"restaurent23.jpg","small":"pizza3.jpg"}],"tel":"0396638006","food":[{"name":"pizza"}]},{"name":"Burger Burger","location":[{"name":"Box Hill","address":"135 Union Rd, Surrey Hills VIC 3127"}],"website":"http:\/\/www.burgerburger.com.au\/","rating":0,"comment":[],"shop_img":[{"big":"restaurent15.jpg","small":"burger4.jpg"}],"tel":"0398981118","food":[{"name":"Burger"}]},{"name":"Samurai Rice Burger","location":[{"name":"Box Hill","address":"Box Hill Central, Food Court, 1 Main Street, Box Hill, Melbourne, VIC 3128"}],"website":"#","rating":0,"comment":[],"shop_img":[{"big":"restaurent14.jpg","small":"burger3.jpg"}],"tel":"0398981128","food":[{"name":"Burger"}]},{"name":"Uber Burger Restaurant","location":[{"name":"Box Hill","address":"Box Hill Central, Food Court, 1 Main Street, Box Hill, Melbourne, VIC 3128"}],"website":"#","rating":0,"comment":[],"shop_img":[{"big":"restaurent15.jpg","small":"burger5.jpg"}],"tel":"0398981128","food":[{"name":"Burger"}]},{"name":"Grill'd burger Restaurant","location":[{"name":"Burwood","address":"Shop 30 172 Burwood Hwy, Burwood East VIC 3151"},{"name":"Camberwell","address":"879 Burke Rd, Camberwell VIC 3124"}],"website":"http:\/\/www.grilld.com.au\/","rating":0,"comment":[],"shop_img":[{"big":"restaurent12.jpg","small":"burger1.jpg"}],"tel":"0398020362","food":[{"name":"Burger"}]},{"name":"Hungry Jack Burger Restaurant","location":[{"name":"Burwood","address":"171 Burwood Hwy, Burwood VIC 3125"}],"website":"http:\/\/www.hungryjacks.com.au\/","rating":0,"comment":[],"shop_img":[{"big":"restaurent13.jpg","small":"burger2.jpg"}],"tel":"0398083026","food":[{"name":"Burger"}]},{"name":"Burger Edge","location":[{"name":"Melbourne","address":"182 King St, Melbourne VIC 3000"}],"website":"http:\/\/burgeredge.com\/","rating":0,"comment":[],"shop_img":[{"big":"restaurent18.jpg","small":"burger7.jpg"}],"tel":"0396003990","food":[{"name":"Burger"}]},{"name":"The Beer & Burger Bar","location":[{"name":"Melbourne","address":"112 Swan St, Richmond VIC 3121"}],"website":"http:\/\/tbbl.com.au\/","rating":0,"comment":[],"shop_img":[{"big":"restaurent19.jpg","small":"burger8.jpg"}],"tel":"0394295934","food":[{"name":"Burger"}]},{"name":"Mr Burger","location":[{"name":"Melbourne","address":"93 Therry St, Melbourne VIC 3000"}],"website":"http:\/\/mrburger.com.au\/","rating":0,"comment":[],"shop_img":[{"big":"restaurent20.jpg","small":"burger9.jpg"}],"tel":"0393297304","food":[{"name":"Burger"}]}]}